City_ID,City,Lat,Lng,Max Temp,Humidity,Cloudiness,Wind Speed,Country,Date
0,tangalle,6.024,80.7911,24.94,89,13,4.6,LK,1690498907
1,castillos,-34.1667,-53.8333,8.46,78,86,1.78,UY,1690498592
2,akureyri,65.6835,-18.0878,9.96,81,75,4.63,IS,1690499157
3,port-aux-francais,-49.35,70.2167,5.09,87,90,11.69,TF,1690499157
4,tiksi,71.6872,128.8694,9.42,60,37,3.2,RU,1690499158
5,ribeira grande,38.5167,-28.7,22.65,96,79,4.02,PT,1690499159
6,raja,8.4596,25.678,20.85,95,98,0.34,SS,1690499159
7,blackmans bay,-43.0167,147.3167,12.07,76,79,3.93,AU,1690499159
8,lihue,21.9789,-159.3672,30.58,66,0,7.2,US,1690499159
9,remire-montjoly,4.9167,-52.2667,25.02,94,0,0.0,GF,1690498982
10,acarau,-2.8856,-40.12,26.23,83,15,8.72,BR,1690498593
11,fort bragg,35.139,-79.006,33.32,52,0,3.09,US,1690499161
12,qaqortoq,60.7167,-46.0333,7.13,72,100,0.82,GL,1690499161
13,krasnogorskoye,52.2953,86.1979,15.42,93,56,1.51,RU,1690499162
14,guerrero negro,27.9769,-114.0611,28.34,48,8,6.18,MX,1690499023
15,oppdal,62.5943,9.6912,11.19,93,97,1.76,NO,1690499162
16,bethel,41.3712,-73.414,30.42,88,20,0.0,US,1690499080
17,margaret river,-33.95,115.0667,13.82,72,100,8.31,AU,1690499163
18,port mathurin,-19.6833,63.4167,23.43,77,16,5.3,MU,1690499163
19,waitangi,-43.9535,-176.5597,9.9,87,47,2.68,NZ,1690499163
20,prince rupert,54.3161,-130.3201,15.83,96,75,7.2,CA,1690499047
21,chernyshevskiy,63.0128,112.4714,15.34,64,68,1.97,RU,1690499164
22,al muwayh,22.4333,41.7583,31.08,19,47,6.58,SA,1690499164
23,papatowai,-46.5619,169.4708,8.0,76,88,2.95,NZ,1690499164
24,along,28.1667,94.7667,23.13,98,100,0.37,IN,1690499165
25,onega,63.9061,38.1404,12.78,79,57,2.05,RU,1690499087
26,vilyuchinsk,52.9306,158.4028,12.15,91,100,0.43,RU,1690499165
27,ilulissat,69.2167,-51.1,5.01,93,20,0.51,GL,1690499165
28,port saint john's,-31.6229,29.5448,16.17,87,0,2.17,ZA,1690499166
29,tazovsky,67.4667,78.7,15.3,95,64,2.72,RU,1690498570
30,nova sintra,14.8667,-24.7167,22.49,81,53,7.33,CV,1690499166
31,kailua-kona,19.6406,-155.9956,30.28,79,75,4.12,US,1690499166
32,puerto natales,-51.7236,-72.4875,-2.96,92,74,1.26,CL,1690498884
33,kristiansund,63.1115,7.732,15.03,94,100,3.09,NO,1690498594
34,moapa valley,36.5805,-114.4703,45.3,5,0,9.68,US,1690499167
35,irymple,-34.25,142.1667,15.05,71,89,4.51,AU,1690499167
36,ushuaia,-54.8,-68.3,0.81,55,0,5.66,AR,1690499167
37,keelung,25.1283,121.7419,30.05,84,100,16.48,TW,1690499167
38,nchelenge,-9.3451,28.734,18.33,51,8,1.29,ZM,1690499168
39,bel ombre,-4.6167,55.4167,25.91,83,40,7.2,SC,1690499168
40,albany,42.6001,-73.9662,26.6,88,36,3.52,US,1690499168
41,santa fe,-31.6333,-60.7,14.44,69,29,1.34,AR,1690499168
42,isla aguada,18.7833,-91.4667,30.02,78,100,7.75,MX,1690499168
43,bontang,0.1333,117.5,24.04,87,44,3.83,ID,1690499169
44,bilibino,68.0546,166.4372,12.23,64,93,1.92,RU,1690499169
45,lebu,-37.6167,-73.65,11.64,92,100,1.2,CL,1690499169
46,edinburgh of the seven seas,-37.0676,-12.3116,9.98,49,29,1.96,SH,1690499169
47,kenai,60.5544,-151.2583,17.05,78,100,5.14,US,1690499169
48,adamstown,-25.066,-130.1015,19.43,59,33,1.43,PN,1690499170
49,utrik,11.2278,169.8474,28.46,78,87,8.87,MH,1690499170
50,chonchi,-42.6128,-73.8092,10.07,98,98,1.35,CL,1690498595
51,volokonovka,50.4827,37.8563,19.57,81,87,3.08,RU,1690499170
52,okha,53.5739,142.9478,14.27,85,80,4.94,RU,1690498965
53,yellowknife,62.456,-114.3525,24.29,31,40,3.09,CA,1690499101
54,sovetskaya gavan',48.9723,140.2878,20.87,82,100,0.38,RU,1690498602
55,college,64.8569,-147.8028,26.99,51,75,4.63,US,1690499171
56,gaoual,11.75,-13.2,24.83,95,50,1.7,GN,1690499171
57,kavaratti,10.5669,72.642,28.11,76,99,6.76,IN,1690499171
58,iqaluit,63.7506,-68.5145,13.85,58,40,2.06,CA,1690498996
59,aasiaat,68.7098,-52.8699,3.32,88,73,2.34,GL,1690499172
60,bocas del toro,9.3333,-82.25,25.68,76,100,3.58,PA,1690499172
61,nouadhibou,20.931,-17.0347,22.99,68,7,10.29,MR,1690499172
62,isafjordur,66.0755,-23.124,6.98,91,98,4.03,IS,1690499172
63,kolobrzeg,54.1757,15.5834,16.75,87,91,4.41,PL,1690499172
64,parabel',58.6978,81.4825,15.12,93,46,2.02,RU,1690499173
65,sealy,29.7808,-96.1572,36.4,30,18,8.36,US,1690498930
66,ancud,-41.8697,-73.8203,9.84,95,100,3.46,CL,1690498584
67,iskateley,67.6803,53.1512,14.49,92,100,2.17,RU,1690499173
68,mamit,23.9333,92.4833,20.6,99,93,1.55,IN,1690499173
69,seoni malwa,22.45,77.4667,25.84,91,100,2.92,IN,1690499174
70,carnarvon,-24.8667,113.6333,14.08,67,0,5.85,AU,1690499174
71,natal,-5.795,-35.2094,25.36,94,20,3.09,BR,1690499174
72,tolanaro,-25.0319,46.9987,19.04,72,20,5.14,MG,1690499174
73,dunedin,-45.8742,170.5036,10.45,66,100,1.34,NZ,1690499174
74,dalian,38.9122,121.6022,26.96,83,40,4.0,CN,1690499175
75,afaahiti,-17.75,-149.2833,26.93,85,40,4.35,PF,1690499175
76,talnakh,69.4865,88.3972,19.56,57,17,2.08,RU,1690499175
77,tannum sands,-23.9504,151.3693,20.42,63,75,3.09,AU,1690499175
78,wailua homesteads,22.0669,-159.378,30.24,73,0,7.2,US,1690499175
79,northam,51.0333,-4.2167,18.14,97,40,3.62,GB,1690499176
80,amga,60.8953,131.9608,19.11,47,4,1.66,RU,1690499176
81,aiken,33.5835,-81.5998,33.65,51,0,4.63,US,1690499176
82,mount gambier,-37.8333,140.7667,10.55,96,21,2.83,AU,1690498900
83,puerto leguizamo,-0.1934,-74.7819,25.06,91,59,1.04,CO,1690499177
84,chak one hundred twenty nine left,30.4333,73.05,28.83,78,17,1.48,PK,1690499177
85,papao,-17.75,-149.55,27.82,81,20,4.25,PF,1690499177
86,santa maria da boa vista,-8.8078,-39.8256,25.12,59,55,7.15,BR,1690499177
87,jamestown,42.097,-79.2353,24.45,79,100,6.17,US,1690499016
88,orkney,-26.9802,26.6727,12.41,57,0,3.27,ZA,1690499178
89,romanovskaya,47.5426,42.0285,24.5,44,6,5.93,RU,1690499178
90,weno,7.4515,151.8468,27.85,77,95,5.8,FM,1690499053
91,ghadamis,30.1337,9.5007,35.51,14,0,5.28,LY,1690499178
92,grytviken,-54.2811,-36.5092,-2.28,84,100,4.61,GS,1690499178
93,smithers,54.7804,-127.1743,16.18,72,75,1.03,CA,1690499179
94,port arthur,38.8,121.2667,27.12,92,66,3.84,CN,1690499122
95,saint-pierre,-21.3393,55.4781,18.82,68,75,4.12,RE,1690499179
96,san antonio de pale,-1.4014,5.6325,23.16,89,96,5.27,GQ,1690499179
97,hawaiian paradise park,19.5933,-154.9731,28.35,81,22,0.45,US,1690498895
98,hithadhoo,-0.6,73.0833,28.26,79,97,6.33,MV,1690499180
99,lerwick,60.1545,-1.1494,13.0,86,3,2.65,GB,1690498597
100,uturoa,-16.7333,-151.4333,26.61,77,1,3.97,PF,1690499180
101,lodwar,3.1191,35.5973,28.83,48,62,3.93,KE,1690499180
102,ola,59.5833,151.2833,17.86,56,3,4.34,RU,1690499181
103,banmankhi,25.8833,87.1833,28.37,80,100,3.46,IN,1690499181
104,nar'yan-mar,67.6713,53.087,14.57,93,100,2.47,RU,1690499181
105,whitehorse,60.7161,-135.0538,23.9,49,75,4.12,CA,1690498934
106,champerico,14.3,-91.9167,35.3,65,62,2.99,GT,1690499182
107,bredasdorp,-34.5322,20.0403,9.19,90,0,1.6,ZA,1690499182
108,puerto ayora,-0.7393,-90.3518,28.98,90,39,2.68,EC,1690499182
109,crane,31.3974,-102.3501,36.4,19,18,7.91,US,1690498919
110,wakkanai,45.4094,141.6739,20.63,96,53,7.08,JP,1690499183
111,avarua,-21.2078,-159.775,25.03,69,95,2.06,CK,1690499183
112,olonkinbyen,70.9221,-8.7187,4.89,89,100,5.65,SJ,1690499183
113,coquimbo,-29.9533,-71.3436,14.85,77,20,4.12,CL,1690498397
114,albu kamal,34.45,40.9186,33.75,15,0,6.02,SY,1690499184
115,barra dos coqueiros,-10.9089,-37.0386,26.01,78,40,3.6,BR,1690499184
116,el salto,20.3333,-104.5,22.66,77,76,0.38,MX,1690499184
117,nosy varika,-20.5833,48.5333,17.41,84,65,2.03,MG,1690499185
118,werota,11.9167,37.7,15.66,94,100,0.18,ET,1690499185
119,saint-julien-en-genevois,46.0833,6.0833,20.08,66,0,2.06,FR,1690499185
120,roi et,15.75,103.75,28.03,80,100,5.38,TH,1690499185
121,kangding,30.0513,101.9603,15.38,99,100,0.79,CN,1690499186
122,hinton,53.4001,-117.5857,12.46,92,97,2.05,CA,1690499186
123,necochea,-38.5473,-58.7368,7.28,78,100,1.82,AR,1690499186
124,port augusta,-32.5,137.7667,14.63,69,55,1.41,AU,1690498600
125,gurupi,-11.7292,-49.0686,27.72,29,27,2.49,BR,1690499039
126,behompy,-23.2496,43.8557,16.18,45,0,2.28,MG,1690499187
127,mount pearl,47.5166,-52.7813,20.25,86,100,4.02,CA,1690499187
128,ghat,24.9647,10.1728,32.82,10,2,2.78,LY,1690499187
129,valparaiso,-33.0393,-71.6273,17.13,59,0,5.14,CL,1690499188
130,gainesville,29.6516,-82.3248,29.81,70,100,1.0,US,1690498856
131,nangomba,-10.9,38.5,18.68,85,68,1.51,TZ,1690499188
132,anadyr,64.75,177.4833,14.28,76,75,2.0,RU,1690499188
133,pangody,65.85,74.4859,17.71,88,88,1.44,RU,1690499188
134,swakopmund,-22.6833,14.5333,12.47,87,9,0.89,NA,1690499189
135,east london,-33.0153,27.9116,15.3,83,0,3.57,ZA,1690498916
136,westport,41.1415,-73.3579,31.62,75,75,12.86,US,1690498925
137,geraldton,-28.7667,114.6,10.23,100,100,5.14,AU,1690498602
138,caleta de carquin,-11.0925,-77.6267,20.29,76,46,5.45,PE,1690499189
139,miyako,39.6367,141.9525,27.77,65,23,1.09,JP,1690498984
140,najran,17.4924,44.1277,33.36,16,85,1.4,SA,1690499190
141,barabai,-2.5833,115.3833,21.53,88,57,1.07,ID,1690499190
142,saipan,15.1355,145.701,26.39,100,100,6.17,MP,1690499190
143,groningen,53.25,6.75,18.36,95,100,3.6,NL,1690499123
144,fort st. john,56.2499,-120.8529,17.94,63,75,2.57,CA,1690499113
145,una,20.8167,71.0333,26.25,88,100,7.62,IN,1690499191
146,kimbe,-5.5502,150.1429,24.79,93,100,2.07,PG,1690499191
147,coracora,-15.0333,-73.7833,9.87,33,0,2.18,PE,1690499191
148,port lincoln,-34.7333,135.8667,13.61,87,10,5.87,AU,1690499192
149,ugoofaaru,5.6667,73.0,28.08,73,88,1.97,MV,1690498599
150,punta del este,-34.9667,-54.95,9.93,78,0,2.24,UY,1690499074
151,kodiak,57.79,-152.4072,13.73,82,100,4.12,US,1690499192
152,longyearbyen,78.2186,15.6401,9.91,71,75,7.72,SJ,1690499193
153,cestos city,5.46,-9.5828,25.06,89,96,4.45,LR,1690499193
154,beberibe,-4.1797,-38.1306,26.16,80,8,6.44,BR,1690499193
155,sisimiut,66.9395,-53.6735,7.99,78,72,3.39,GL,1690499193
156,sinan,34.8262,126.1086,26.06,92,100,5.15,KR,1690499193
157,hermanus,-34.4187,19.2345,12.18,77,0,1.4,ZA,1690499194
158,gizo,-8.103,156.8419,27.66,80,62,5.4,SB,1690499194
159,vallenar,-28.5708,-70.7581,17.73,60,3,0.79,CL,1690499194
160,arraial do cabo,-22.9661,-42.0278,21.92,83,0,4.63,BR,1690499194
161,dryden,49.7833,-92.7503,26.16,38,20,4.12,CA,1690499194
162,altai,46.3722,96.2583,17.0,32,29,1.88,MN,1690499194
163,nikel,69.4128,30.222,12.1,81,25,1.06,RU,1690499195
164,grand falls-windsor,48.9332,-55.6649,21.95,85,84,0.89,CA,1690499195
165,berdyansk,46.7503,36.7944,24.13,87,99,1.21,UA,1690499195
166,vila franca do campo,37.7167,-25.4333,23.23,94,46,4.21,PT,1690498989
167,luderitz,-26.6481,15.1594,12.08,85,0,0.44,NA,1690499195
168,kununurra,-15.7667,128.7333,12.99,94,95,0.51,AU,1690499195
169,kismayo,-0.3582,42.5454,24.15,85,40,6.7,SO,1690499196
170,fendou,46.65,124.8667,23.83,92,95,4.99,CN,1690499196
171,udachny,66.4167,112.4,16.92,55,86,1.18,RU,1690499196
172,invercargill,-46.4,168.35,6.68,83,95,2.24,NZ,1690499196
173,maridi,4.9158,29.4742,20.21,91,94,2.53,SS,1690499196
174,nizhniy odes,63.6445,54.856,14.57,99,100,1.99,RU,1690499197
175,mawlaik,23.6333,94.4167,25.1,99,100,0.1,MM,1690499197
176,conception bay south,47.4999,-52.9981,20.58,86,100,6.26,CA,1690499197
177,west island,-12.1568,96.8225,23.99,78,75,9.77,CC,1690499197
178,mejit,10.2753,170.8646,28.4,80,99,9.1,MH,1690499197
179,bulgan,48.8125,103.5347,14.37,74,53,0.13,MN,1690499198
180,huilong,31.8111,121.655,26.63,93,100,7.5,CN,1690499198
181,maintirano,-18.0667,44.0167,22.09,80,0,4.35,MG,1690498941
182,mohr,54.3528,9.7167,15.08,93,99,1.54,DE,1690499198
183,hammerfest,70.6634,23.6821,9.25,87,75,1.54,NO,1690499198
184,ust-nera,64.5667,143.2,12.65,58,51,1.91,RU,1690499199
185,porto novo,6.4965,2.6036,25.9,91,100,3.19,BJ,1690499199
186,vorgashor,67.5833,63.95,14.09,93,94,1.22,RU,1690499003
187,ghanzi,-21.5667,21.7833,15.69,34,2,4.82,BW,1690499199
188,new norfolk,-42.7826,147.0587,12.73,72,59,3.88,AU,1690499199
189,kapuskasing,49.4169,-82.4331,27.05,57,40,8.23,CA,1690498966
190,thompson,55.7435,-97.8558,14.09,67,75,3.6,CA,1690499200
191,ulladulla,-35.35,150.4667,18.26,46,62,3.96,AU,1690499200
192,mumford,5.2618,-0.759,24.2,92,83,4.28,GH,1690499200
193,zarghun shahr,32.8473,68.4457,21.93,54,61,0.44,AF,1690499200
194,sanctuary point,-35.1114,150.629,19.62,46,48,2.45,AU,1690499200
195,newman,37.3138,-121.0208,38.92,10,0,4.55,US,1690499052
196,qamdo,31.1667,97.2333,5.26,73,99,1.67,CN,1690499120
197,petropavlovsk-kamchatsky,53.0452,158.6483,11.33,100,100,2.0,RU,1690499201
198,waingapu,-9.6567,120.2641,22.19,78,8,4.77,ID,1690499201
199,dongola,19.1667,30.4833,33.77,37,47,2.84,SD,1690499201
200,surgana,20.5667,73.6167,22.27,96,100,4.51,IN,1690499201
201,revelstoke,50.9832,-118.2023,21.01,49,75,7.2,CA,1690499201
202,st. john's,47.5649,-52.7093,20.71,87,100,2.24,CA,1690499062
203,dordrecht,51.81,4.6736,18.36,86,100,2.68,NL,1690499201
204,vorkuta,67.5,64.0,14.47,92,97,0.95,RU,1690499202
205,ust'-uda,54.1742,103.0304,15.81,87,19,0.44,RU,1690499202
206,cidreira,-30.1811,-50.2056,12.8,71,75,3.07,BR,1690499202
207,haiku-pauwela,20.9219,-156.3051,30.01,63,20,12.86,US,1690499202
208,baoqing,46.3317,132.2111,25.41,81,95,3.42,CN,1690499202
209,praia,14.9215,-23.5087,27.3,74,20,7.72,CV,1690499202
210,gebeit,21.0667,36.3167,32.8,32,39,4.76,SD,1690499203
211,enewetak,11.3474,162.3373,28.21,80,100,7.19,MH,1690499203
212,gargalianoi,37.0667,21.6333,23.34,69,0,3.72,GR,1690499203
213,castanos,26.7833,-101.4167,36.86,22,40,0.0,MX,1690499203
214,tshabong,-26.05,22.45,15.38,33,1,4.53,BW,1690499203
215,maur,30.0833,75.25,27.9,82,72,1.2,IN,1690499203
216,cudillero,43.5622,-6.1459,20.51,81,20,1.54,ES,1690499204
217,progreso,21.2833,-89.6667,32.84,75,92,8.28,MX,1690499204
218,timbuktu,16.7735,-3.0074,32.1,44,100,6.57,ML,1690498995
219,georgetown,5.4112,100.3354,27.96,89,20,0.51,MY,1690498954
220,dudinka,69.4058,86.1778,19.79,62,14,2.98,RU,1690499204
221,undurkhaan,47.3194,110.6556,17.31,62,70,2.09,MN,1690499204
222,ondjiva,-17.0667,15.7333,16.75,26,11,2.34,AO,1690499204
223,badger,64.8,-147.5333,26.95,48,20,4.63,US,1690499205
224,stanley,54.868,-1.6985,16.21,87,75,2.57,GB,1690499205
225,cadale,2.7603,46.3222,24.58,85,72,7.1,SO,1690499205
226,egilsstadir,65.2653,-14.3948,7.95,87,75,3.09,IS,1690499002
227,rio preto da eva,-2.6994,-59.6997,29.32,53,78,1.65,BR,1690499205
228,punta arenas,-53.15,-70.9167,-1.66,85,7,2.12,CL,1690498967
229,bambamarca,-6.6833,-78.5333,14.31,81,43,2.79,PE,1690499211
230,hasaki,35.7333,140.8333,29.22,74,14,4.51,JP,1690499211
231,palmer,42.1584,-72.3287,24.34,100,75,0.0,US,1690499211
232,aswan,24.0934,32.907,34.47,15,0,3.84,EG,1690499211
233,inhambane,-23.865,35.3833,18.96,76,0,3.57,MZ,1690499211
234,bardai,11.65,7.2333,23.48,78,100,4.05,NG,1690499211
235,cururupu,-1.8283,-44.8683,24.14,90,9,1.87,BR,1690499211
236,ilhabela,-23.7781,-45.3581,21.47,93,45,3.21,BR,1690499212
237,el granada,37.5027,-122.4694,28.24,67,100,9.26,US,1690499212
238,douz,33.4663,9.0203,28.17,53,0,5.14,TN,1690499212
239,demopolis,32.5176,-87.8364,33.97,49,0,0.0,US,1690499212
240,happy valley-goose bay,53.3168,-60.3315,17.19,53,77,4.07,CA,1690499212
241,nemuro,43.3236,145.575,17.12,97,75,0.72,JP,1690499002
242,aracati,-4.5617,-37.7697,26.51,77,11,6.81,BR,1690499213
243,thunder bay,48.4001,-89.3168,27.99,47,75,4.63,CA,1690498967
244,kone,-21.0595,164.8658,22.04,44,79,2.99,NC,1690498969
245,souillac,-20.5167,57.5167,22.21,83,40,1.03,MU,1690499002
246,lindenfels,49.685,8.7831,16.9,92,100,2.45,DE,1690499214
247,barah,13.7,30.3667,29.11,53,73,5.19,SD,1690499214
248,alice springs,-23.7,133.8833,13.75,94,75,0.0,AU,1690499215
249,bandarbeyla,9.4942,50.8122,23.68,81,89,13.44,SO,1690499215
250,taro,-8.3862,115.28,21.03,94,80,1.28,ID,1690499215
251,alesund,62.4723,6.1549,16.06,93,75,3.6,NO,1690499215
252,lensk,60.7253,114.9278,19.96,62,4,2.02,RU,1690499215
253,kita,13.0349,-9.4895,24.3,85,95,1.09,ML,1690499215
254,encheng,22.1839,112.3026,28.8,81,71,0.97,CN,1690499123
255,asau,46.4333,26.4,11.51,89,24,2.42,RO,1690499216
256,envira,-7.3,-70.2167,27.49,51,21,0.93,BR,1690499107
257,mongoumba,3.6415,18.5936,22.1,96,49,1.1,CF,1690499014
258,kidal,18.4411,1.4078,34.27,21,49,3.58,ML,1690499019
259,ebon,4.582,168.6964,28.74,75,56,5.47,MH,1690499218
260,buellton,34.6136,-120.1927,23.36,20,0,3.97,US,1690498961
261,tura,25.5198,90.2201,23.37,98,100,2.53,IN,1690499218
262,assomada,15.1,-23.6833,24.75,79,60,5.58,CV,1690499218
263,krasnovishersk,60.4078,57.082,16.93,99,45,3.02,RU,1690499218
264,coahuayana de hidalgo,18.7,-103.6583,31.7,56,95,2.47,MX,1690499218
265,kuta,-8.7233,115.1723,25.0,83,75,4.63,ID,1690498973
266,karmaskaly,54.3709,56.1837,21.95,91,15,2.39,RU,1690499219
267,cheboksary,56.1322,47.2519,20.33,83,0,2.0,RU,1690499219
268,rongelap,11.1635,166.8941,28.7,80,100,9.03,MH,1690498937
269,ayios konstandinos,38.6333,21.4,20.06,63,0,1.49,GR,1690499219
270,kachug,53.9606,105.8817,16.69,83,95,1.37,RU,1690499219
271,huarmey,-10.0681,-78.1522,21.41,76,16,5.24,PE,1690499219
272,vadso,70.0744,29.7487,12.49,93,68,3.09,NO,1690499220
273,saint-philippe,-21.3585,55.7679,18.77,70,47,2.99,RE,1690499220
274,mata-utu,-13.2816,-176.1745,27.32,74,99,5.83,WF,1690499033
275,youghal,51.95,-7.8506,15.3,100,88,4.12,IE,1690499221
276,lasem,-6.6922,111.4527,21.33,83,54,3.34,ID,1690499221
277,itaituba,-4.2761,-55.9836,30.52,39,39,0.96,BR,1690499221
278,olyokminsk,60.3736,120.4264,21.58,71,11,2.36,RU,1690499222
279,mirpur sakro,24.5474,67.6277,28.19,79,99,8.07,PK,1690499223
280,dunda,-8.1167,34.25,14.19,67,24,1.83,TZ,1690499224
281,villa la venta,18.1,-94.05,29.07,71,96,4.89,MX,1690499227
282,santyoku,37.4406,129.1708,27.45,75,61,1.12,KR,1690499231
283,malango,-2.9627,119.9001,17.17,93,55,0.99,ID,1690498940
284,ivdel',60.6911,60.4206,14.1,97,69,1.42,RU,1690499233
285,agat village,13.3886,144.6585,25.53,95,40,2.57,GU,1690499233
286,polyarnyy,69.1989,33.4478,11.12,93,80,0.79,RU,1690499235
287,patu,-6.11,-37.6367,26.42,58,29,5.69,BR,1690499236
288,revda,56.801,59.9303,17.06,93,83,2.71,RU,1690499236
289,kingston,17.997,-76.7936,31.53,67,40,9.77,JM,1690498844
290,sao vicente,-23.9631,-46.3919,23.1,26,97,3.09,BR,1690499019
291,bozova,37.3625,38.5267,28.51,38,0,3.68,TR,1690499238
292,crixas,-14.5489,-49.9692,26.03,24,39,1.87,BR,1690499020
293,keflavik,64.0049,-22.5624,12.95,87,0,5.14,IS,1690499027
294,puerto baquerizo moreno,-0.9,-89.6,27.55,69,20,4.12,EC,1690498994
295,tralee,52.2704,-9.7026,12.61,90,100,2.3,IE,1690499241
296,port alfred,-33.5906,26.891,15.21,84,0,5.0,ZA,1690499242
297,tarrafal,15.2833,-23.7667,27.44,81,47,7.28,CV,1690499242
298,kerikeri,-35.2268,173.9474,13.28,83,12,0.45,NZ,1690499243
299,embalse,-32.18,-64.4181,8.69,41,31,1.67,AR,1690499243
300,tazacorte,28.629,-17.9293,22.54,80,0,7.72,ES,1690499243
301,dampit,-8.2116,112.7493,17.73,93,54,2.1,ID,1690499243
302,galliano,29.4422,-90.2992,33.89,50,1,4.7,US,1690499244
303,binghamton,42.0987,-75.918,27.38,84,40,2.06,US,1690499244
304,strezhevoy,60.7333,77.5889,15.15,95,68,2.38,RU,1690499244
305,puerto aysen,-45.4,-72.7,5.19,100,100,0.61,CL,1690499245
306,nuuk,64.1835,-51.7216,11.6,62,100,2.71,GL,1690498953
307,figuig (centre),32.1089,-1.2286,33.02,11,6,0.83,MA,1690499245
308,okulovka,58.4008,33.2908,14.54,99,100,3.0,RU,1690499245
309,cabo san lucas,22.8909,-109.9124,35.61,62,0,7.72,MX,1690499107
310,bikenibeu village,1.3673,173.1241,30.98,74,40,2.57,KI,1690499246
311,junin de los andes,-39.9504,-71.0694,4.1,96,91,2.67,AR,1690499246
312,sitka,57.0531,-135.33,18.94,72,40,3.6,US,1690499246
313,minggang,32.4586,114.0486,25.52,93,22,4.75,CN,1690499247
314,trairi,-3.2778,-39.2689,26.14,83,6,5.65,BR,1690499189
315,giyani,-23.3025,30.7187,17.01,51,0,1.65,ZA,1690499247
316,lompoc,34.6391,-120.4579,26.03,72,40,9.39,US,1690499247
317,holualoa,19.6228,-155.9522,28.21,79,75,4.12,US,1690499220
318,priozersk,61.0393,30.1291,16.16,91,100,2.04,RU,1690499249
319,karratha,-20.7377,116.8463,17.28,56,0,4.82,AU,1690499252
320,tamanrasset,22.785,5.5228,29.95,9,0,4.12,DZ,1690499255
321,marsassoum,12.8275,-15.9806,26.55,85,49,2.2,SN,1690499256
322,santiago de cao,-7.9589,-79.2392,22.07,83,75,4.63,PE,1690499258
323,mazeikiai,56.3167,22.3333,10.39,93,34,2.69,LT,1690499258
324,greymouth,-42.4667,171.2,7.72,65,46,3.37,NZ,1690499258
325,miles city,46.4083,-105.8406,33.54,18,0,3.6,US,1690499134
326,borodulikha,50.7184,80.9295,17.67,96,100,2.65,KZ,1690499260
327,rawson,-43.3002,-65.1023,6.02,81,39,3.35,AR,1690499260
328,muang phonsavan,19.45,103.2167,19.31,96,100,0.39,LA,1690499261
329,casablanca,33.5928,-7.6192,22.96,60,10,4.02,MA,1690499144
330,tual,-5.6667,132.75,26.27,81,66,9.62,ID,1690499261
331,padang,-0.9492,100.3543,24.03,84,96,1.39,ID,1690499221
332,fale old settlement,-9.3852,-171.2468,27.93,77,15,7.68,TK,1690499261
333,xucheng,20.35,110.1288,28.04,84,85,4.49,CN,1690499262
334,illizi,26.4833,8.4667,34.74,9,2,5.42,DZ,1690499262
335,genhe,50.7833,121.5167,16.6,91,78,1.38,CN,1690499262
336,sipovo,44.2814,17.0839,14.34,67,0,2.06,BA,1690499264
337,basoko,1.2391,23.616,23.65,82,77,0.42,CD,1690499264
338,yangjiang,21.85,111.9667,28.09,84,67,1.67,CN,1690499264
339,hovd,48.0056,91.6419,21.19,29,12,2.98,MN,1690499265
340,brookings,44.3114,-96.7984,35.14,59,40,2.06,US,1690499265
341,pacific grove,36.6177,-121.9166,28.45,79,0,5.14,US,1690499265
342,atraulia,26.3333,82.95,30.22,68,98,3.86,IN,1690499265
343,tarfaya,27.9358,-12.9218,21.13,81,3,8.23,MA,1690499265
344,vila velha,-20.3297,-40.2925,21.97,89,75,3.09,BR,1690499266
345,grand-bassam,5.2118,-3.7388,25.98,93,22,2.89,CI,1690499266
346,vilyuysk,63.7553,121.6247,18.78,61,100,2.65,RU,1690499266
347,great falls,47.5002,-111.3008,24.25,31,75,3.09,US,1690499267
348,mpulungu,-8.7623,31.1141,20.67,49,5,3.03,ZM,1690499267
349,hongwon,40.0253,127.9558,26.18,71,34,2.3,KP,1690499267
350,labytnangi,66.6572,66.4183,15.34,92,59,2.75,RU,1690499268
351,dawei,14.0833,98.2,25.25,93,92,2.97,MM,1690499093
352,odlabari,26.8333,88.6167,25.22,91,90,1.62,IN,1690499268
353,mushie,-3.0167,16.9,27.79,35,62,0.86,CD,1690499268
354,san martin,-33.081,-68.4681,13.25,41,31,4.64,AR,1690499268
355,bonga,7.2833,36.2333,14.39,99,78,1.02,ET,1690499269
356,severo-yeniseyskiy,60.3725,93.0408,14.33,92,73,1.42,RU,1690498984
357,salym,60.0625,71.4789,15.88,81,63,2.13,RU,1690499269
358,port elizabeth,-33.918,25.5701,14.1,87,0,3.06,ZA,1690499270
359,sorong,-0.8833,131.25,24.82,88,100,4.19,ID,1690499270
360,hadibu,12.65,54.0333,25.07,80,100,9.77,YE,1690499270
361,mangrol,21.1167,70.1167,26.87,86,100,9.14,IN,1690499270
362,fiditi,7.7136,3.9172,22.9,96,88,3.08,NG,1690499270
363,mar del plata,-38.0023,-57.5575,8.94,77,100,3.58,AR,1690499225
364,ishigaki,24.3448,124.1572,29.07,89,75,8.23,JP,1690499271
365,isangel,-19.55,169.2667,22.24,58,32,6.18,VU,1690499271
366,knysna,-34.0363,23.0471,12.53,89,29,1.98,ZA,1690499271
367,katsuura,35.1333,140.3,27.35,74,9,3.7,JP,1690499271
368,felipe carrillo puerto,19.5833,-88.05,32.19,54,89,3.27,MX,1690499271
369,kaa-khem,51.6833,94.7333,18.6,62,99,1.82,RU,1690499272
370,gadzhiyevo,69.2551,33.3362,9.94,95,81,0.94,RU,1690499272
371,karagandy,49.8019,73.1021,9.97,70,11,1.92,KZ,1690499272
372,aykhal,66.0,111.5,18.33,48,89,1.14,RU,1690499272
373,iglino,54.8324,56.4126,22.05,93,13,2.34,RU,1690499272
374,bryansk,53.2875,34.3806,17.79,97,99,1.44,RU,1690499273
375,tapejara,-28.0681,-52.0139,16.21,96,79,0.62,BR,1690499027
376,bosaso,11.2842,49.1816,32.84,38,91,14.3,SO,1690499273
377,howrah,22.5892,88.3103,27.0,94,75,2.57,IN,1690499273
378,lautoka,-17.6167,177.4667,23.92,64,40,6.69,FJ,1690499273
379,le port,-20.9373,55.2919,19.0,73,43,1.49,RE,1690499274
380,urumqi,43.801,87.6005,30.53,22,40,2.0,CN,1690499274
381,manokwari,-0.8667,134.0833,26.58,73,56,0.53,ID,1690499274
382,pionerskiy,54.9508,20.2275,12.64,78,8,4.33,RU,1690499274
383,bratsk,56.1325,101.6142,16.27,84,6,1.13,RU,1690499274
384,san patricio,28.017,-97.5169,36.4,45,2,7.65,US,1690499274
385,gemena,3.25,19.7667,22.6,87,60,0.47,CD,1690499275
386,klaksvik,62.2266,-6.589,12.51,95,100,5.89,FO,1690499275
387,manturovo,58.3353,44.7619,15.0,91,39,0.96,RU,1690499275
388,tarko-sale,64.9225,77.785,19.01,77,100,1.99,RU,1690499275
389,taitung city,22.7583,121.1444,26.15,89,100,5.14,TW,1690499275
390,farafangana,-22.8167,47.8333,19.24,75,100,0.92,MG,1690499276
391,klyuchi,52.2667,79.1667,17.43,74,100,3.17,RU,1690499276
392,cedral,23.8,-100.7333,27.94,24,4,2.87,MX,1690499221
393,arteche,12.2645,125.4048,26.81,83,100,1.93,PH,1690499276
394,zheleznodorozhnyy,55.7503,38.0042,21.42,75,88,3.69,RU,1690499276
395,bandar abbas,27.1865,56.2808,31.3,80,89,5.15,IR,1690499276
396,qarazhal,48.0078,70.7903,20.11,52,2,2.99,KZ,1690499276
397,pangobilian,8.8011,117.8594,27.25,78,100,5.49,PH,1690499277
398,sechura,-5.5569,-80.8222,25.07,64,7,8.45,PE,1690499277
399,kapa'a,22.0752,-159.319,30.99,73,0,7.2,US,1690499277
400,glace bay,46.1969,-59.957,24.88,81,75,6.17,CA,1690499044
401,ban selaphum,16.0167,103.95,25.64,85,100,4.39,TH,1690499277
402,luanda,-8.8368,13.2343,20.0,91,14,4.31,AO,1690499277
403,saint joseph,39.7686,-94.8466,33.78,55,0,4.63,US,1690499278
404,randfontein,-26.1844,27.702,11.5,56,0,1.89,ZA,1690499278
405,al ghayzah,16.2079,52.176,24.8,89,97,5.75,YE,1690498995
406,lae,-6.7221,146.9847,23.08,94,100,1.94,PG,1690499278
407,juan griego,11.0817,-63.9655,25.07,88,89,7.72,VE,1690499278
408,labrador city,52.9463,-66.9114,9.98,79,89,5.08,CA,1690499278
409,yarmouth,41.7057,-70.2286,27.3,87,20,8.23,US,1690499279
410,poronaysk,49.2167,143.1167,20.22,83,99,2.18,RU,1690499279
411,thinadhoo,0.5333,72.9333,28.11,78,80,5.02,MV,1690499279
412,kill devil hills,36.0307,-75.676,31.01,70,0,7.2,US,1690499279
413,kayangel,8.0823,134.7173,26.91,82,100,13.94,PW,1690499107
414,sao joao da barra,-21.6403,-41.0511,22.05,84,1,7.54,BR,1690499280
415,cabeza del buey,38.7223,-5.2195,22.82,30,0,2.02,ES,1690499280
416,ataq,14.5377,46.8319,28.43,52,89,1.64,YE,1690499280
417,box elder,41.5005,-112.8764,33.48,30,4,0.92,US,1690499280
418,sal rei,16.1833,-22.9167,24.76,83,42,7.62,CV,1690499280
419,mariehamn,60.0973,19.9348,16.01,100,20,0.51,AX,1690499280
420,nicoya,10.1483,-85.452,27.79,84,99,1.33,CR,1690499281
421,hotan,37.0997,79.9269,28.68,27,76,0.1,CN,1690499005
422,san sebastian de la gomera,28.0916,-17.1133,25.65,64,100,1.03,ES,1690499281
423,ha'il,27.5219,41.6907,30.12,15,12,0.8,SA,1690499281
424,kourou,5.1552,-52.6478,25.03,85,58,4.33,GF,1690499140
425,yuzhno-kurilsk,44.0306,145.8556,21.8,84,33,1.46,RU,1690499282
426,sandakan,5.8402,118.1179,25.01,89,100,2.78,MY,1690499242
427,brokopondo,4.75,-55.1667,28.96,69,85,2.25,SR,1690499282
428,puerto madryn,-42.7692,-65.0385,6.56,75,11,5.61,AR,1690499283
429,bacalar,18.6667,-88.3833,26.06,94,75,0.0,MX,1690499283
430,xunchang,28.4543,104.715,21.96,98,100,1.6,CN,1690499283
431,shingu,33.7333,135.9833,28.31,75,33,1.52,JP,1690499283
432,mildura,-34.2,142.15,15.13,69,88,4.34,AU,1690499147
433,i-n-salah,27.1935,2.4607,38.26,8,0,4.99,DZ,1690499284
434,acolla,-11.7319,-75.5463,10.34,71,38,3.83,PE,1690499284
435,chegdomyn,51.1167,133.0167,19.98,93,94,0.14,RU,1690499285
436,lyantor,61.6195,72.1555,16.56,82,53,4.17,RU,1690499285
437,pasni,25.2631,63.471,27.74,83,100,5.77,PK,1690499285
438,marquette,46.5333,-87.6335,28.79,73,61,1.34,US,1690499104
439,brigantine,39.4101,-74.3646,33.11,78,0,5.66,US,1690499286
440,dalandzadgad,43.5708,104.425,24.37,33,13,5.88,MN,1690499286
441,awjilah,29.1081,21.2869,28.32,65,25,7.23,LY,1690499003
442,gaigeturi,33.4644,126.3183,27.43,79,100,2.33,KR,1690499287
443,ishinomaki,38.4167,141.3,26.8,73,3,2.98,JP,1690499287
444,puerto deseado,-47.7503,-65.8938,2.33,75,12,5.24,AR,1690499287
445,tharad,24.3961,71.6267,28.44,80,100,6.88,IN,1690499288
446,praia da vitoria,38.7333,-27.0667,23.75,97,63,3.07,PT,1690499288
447,broome,42.2506,-75.833,27.21,85,40,2.06,US,1690499288
448,la'ie,21.6477,-157.9253,31.98,65,18,5.93,US,1690499288
449,flin flon,54.7682,-101.865,16.8,53,100,2.34,CA,1690499288
450,boende,-0.2167,20.8667,24.23,81,95,0.88,CD,1690499289
451,neryungri,56.6709,124.6491,19.51,73,100,0.71,RU,1690499289
452,pingliang,35.5392,106.6861,17.84,97,100,2.91,CN,1690499289
453,whangarei,-35.7317,174.3239,12.38,73,16,3.67,NZ,1690499290
454,constantia,44.1833,28.65,16.5,71,18,8.33,RO,1690499045
455,veinticinco de mayo,-35.4323,-60.1727,7.77,86,100,1.79,AR,1690499290
456,gulf shores,30.246,-87.7008,33.49,62,0,4.12,US,1690499291
457,atafu village,-8.5421,-172.5159,28.07,78,27,7.35,TK,1690499291
458,wimauma,27.7125,-82.299,31.47,74,100,2.68,US,1690499290
459,flying fish cove,-10.4217,105.6791,23.82,88,75,7.2,CX,1690499291
460,george town,5.4112,100.3354,27.96,89,20,0.51,MY,1690498773
461,san,13.3034,-4.8956,27.34,72,100,0.48,ML,1690499030
462,krynica-zdroj,49.4222,20.9594,9.26,76,42,2.36,PL,1690499292
463,baruun-urt,46.6806,113.2792,19.02,54,25,4.07,MN,1690499293
464,ivatsevichy,52.709,25.3401,11.92,79,36,2.77,BY,1690499293
465,zhangjiakou shi xuanhua qu,40.6103,115.0447,20.76,89,100,1.02,CN,1690499293
466,falenki,58.3613,51.5946,15.33,96,47,2.69,RU,1690499293
467,hami,42.8,93.45,29.93,14,0,2.66,CN,1690499293
468,xilin hot,43.9667,116.0333,19.85,75,100,3.4,CN,1690499294
469,vytegra,61.0064,36.4481,14.97,86,100,2.28,RU,1690499294
470,wuhan,30.5833,114.2667,27.69,81,11,2.46,CN,1690499262
471,yeniseysk,58.4497,92.1703,16.42,92,70,0.78,RU,1690499294
472,plyeshchanitsy,54.4222,27.8331,11.79,97,100,2.98,BY,1690499295
473,turkmenbasy,40.0222,52.9552,24.22,63,0,2.74,TM,1690499295
474,sarangani,5.4033,125.4636,26.99,80,100,2.68,PH,1690499295
475,la passe,45.5549,-0.8967,20.55,91,52,5.19,FR,1690499295
476,tomatlan,19.9333,-105.25,27.95,82,70,2.06,MX,1690499296
477,lomas de sargentillo,-1.8833,-80.0833,26.92,70,88,0.15,EC,1690499296
478,manoc-manoc,11.9416,121.9428,28.12,80,100,9.3,PH,1690499296
479,makinsk,52.6292,70.4169,16.76,75,70,3.13,KZ,1690499296
480,tadmur,34.5608,38.2805,28.6,25,0,5.9,SY,1690499297
481,ponta delgada,37.7333,-25.6667,23.4,94,75,4.12,PT,1690499297
482,darnah,32.767,22.6367,26.37,77,0,8.39,LY,1690499297
483,hunchun,42.8675,130.3581,26.47,75,42,1.9,CN,1690499297
484,othello,46.826,-119.1753,31.27,13,0,3.9,US,1690499130
485,namie,37.4833,141.0,30.3,67,1,1.07,JP,1690499298
486,plettenberg bay,-34.0527,23.3716,13.07,86,26,1.84,ZA,1690499298
487,murun-kuren,49.6342,100.1625,14.65,74,65,0.8,MN,1690499298
488,capri,40.5507,14.2426,24.1,89,0,1.45,IT,1690499298
489,nyandoma,61.669,40.1991,13.39,88,94,1.23,RU,1690499299
490,quang ngai,15.1167,108.8,27.2,74,100,2.59,VN,1690499299
491,ingeniero jacobacci,-41.3427,-69.5448,2.15,89,17,3.18,AR,1690499299
492,korsakov,46.6328,142.7813,23.91,87,80,2.79,RU,1690499299
493,loa janan,-0.583,117.095,22.78,91,55,1.21,ID,1690499300
494,celestun,20.8667,-90.4,29.18,73,100,9.2,MX,1690499300
495,sandwip,22.4678,91.4561,27.76,87,100,6.93,BD,1690499300
496,la cruz,23.9167,-106.9,31.18,64,63,4.34,MX,1690499300
497,malchin,53.7333,12.7833,15.21,95,100,2.43,DE,1690499301
498,guigang,23.0964,109.6092,28.56,80,70,0.96,CN,1690499301
499,takoradi,4.8845,-1.7554,24.19,92,64,3.79,GH,1690499044
500,mahibadhoo,3.7833,72.9667,28.1,70,82,0.31,MV,1690499301
501,alofi,-19.0595,-169.9187,22.94,83,100,2.57,NU,1690499302
502,namtsy,62.7161,129.6658,18.57,54,66,1.5,RU,1690499302
503,bau,7.4053,124.6497,24.18,90,99,0.22,PH,1690499302
504,inari,68.906,27.0288,11.11,80,88,0.47,FI,1690499302
505,fisterra,42.9049,-9.2629,17.64,94,96,5.8,ES,1690499302
506,labuan,5.2767,115.2417,27.47,78,82,3.22,MY,1690499303
507,simanggang,1.2472,111.4528,21.89,87,60,1.08,MY,1690499303
508,belyayevka,51.3974,56.4096,23.33,50,11,2.2,RU,1690499303
509,chirilagua,13.2203,-88.1386,29.46,58,100,2.52,SV,1690499303
510,yigo village,13.5361,144.8886,24.62,92,20,2.57,GU,1690499304
511,mili,6.0815,171.735,28.39,76,94,5.26,MH,1690499304
512,mitu,1.1983,-70.1733,23.38,97,98,1.27,CO,1690499304
513,villa de arista,22.65,-100.8333,27.45,29,12,7.33,MX,1690499304
514,gazli,40.1333,63.45,31.1,30,7,4.37,UZ,1690499305
515,buala,-8.145,159.5921,27.6,83,92,2.08,SB,1690499305
516,hualien city,23.9769,121.6044,25.96,93,100,5.49,TW,1690499305
517,pacocha,-17.5833,-71.3333,16.17,84,17,1.83,PE,1690499305
518,dedovichi,57.5517,29.9502,13.78,77,100,3.36,RU,1690499305
519,san rafael del sur,11.8485,-86.4384,31.33,58,92,4.58,NI,1690499306
520,luwuk,-0.9516,122.7875,25.05,87,90,2.25,ID,1690499306
521,aripuana,-9.1667,-60.6333,26.92,40,34,0.62,BR,1690499306
522,guadalupe y calvo,26.1,-106.9667,17.1,84,91,1.98,MX,1690499307
523,lauro de freitas,-12.8944,-38.3272,24.01,94,75,3.09,BR,1690499219
524,tofol,5.3248,163.0078,25.88,94,100,1.54,FM,1690499307
525,benguela,-12.5763,13.4055,19.76,85,56,2.26,AO,1690499307
526,piti village,13.4626,144.6933,25.49,95,40,2.57,GU,1690499307
527,charters towers,-20.1,146.2667,18.22,68,93,3.74,AU,1690499307
528,san luis de la loma,17.2706,-100.8939,31.66,63,95,4.38,MX,1690499308
529,charlottetown,46.2352,-63.1267,25.16,80,100,6.69,CA,1690498967
530,kotlas,61.2611,46.6556,13.77,98,56,2.21,RU,1690499308
531,walvis bay,-22.9575,14.5053,12.27,89,6,1.57,NA,1690499309
532,maceio,-9.6658,-35.7353,23.69,100,20,2.06,BR,1690499081
533,saudarkrokur,65.7461,-19.6394,7.98,92,18,3.56,IS,1690499310
534,la alianza,18.3974,-66.6024,28.98,86,99,2.68,PR,1690499310
535,linevo,54.4589,83.3764,15.82,81,86,2.02,RU,1690499310
536,juneau,58.3019,-134.4197,21.17,100,75,6.17,US,1690499205
537,conduaga,8.862,117.4893,26.63,82,100,3.99,PH,1690499311
538,madison heights,42.4859,-83.1052,31.55,61,0,3.6,US,1690499311
539,seversk,56.6006,84.8864,17.7,91,62,0.88,RU,1690499311
540,hamilton,39.1834,-84.5333,31.29,78,20,3.09,US,1690499130
541,tongouson,5.0214,120.1328,28.44,80,100,8.24,PH,1690499311
542,salem,11.65,78.1667,23.3,83,38,1.38,IN,1690499136
543,ranot,7.7777,100.3213,27.16,83,100,6.33,TH,1690499312
544,jimo,36.3897,120.4622,27.09,82,12,2.83,CN,1690499312
545,colonia,50.9333,6.95,17.81,90,100,3.09,DE,1690499312
